
$GPRMC,224258.00,A,2934.93181,N,09501.55886,W,0.182,,120623,,,A*63
$GPVTG,,T,,M,0.182,N,0.336,K,A*2E
$GPGGA,224258.00,2934.93181,N,09501.55886,W,1,08,1.10,0.5,M,-24.3,M,,*65
$GPGSA,A,3,18,15,23,24,13,10,05,27,,,,,1.72,1.10,1.32*0F
$GPGSV,4,1,13,05,10,066,22,10,25,275,18,13,22,042,26,15,53,046,22*75
$GPGSV,4,2,13,16,01,290,,18,64,352,17,23,51,308,19,24,27,128,19*7F
$GPGSV,4,3,13,27,08,322,26,29,39,182,27,32,06,214,23,46,39,234,*75
$GPGSV,4,4,13,48,43,229,*49
$GPGLL,2934.93181,N,09501.55886,W,224258.00,A,A*75
$GPRMC,224259.00,A,2934.92961,N,09501.55904,W,0.034,,120623,,,A*62
$GPVTG,,T,,M,0.034,N,0.062,K,A*20
$GPGGA,224259.00,2934.92961,N,09501.55904,W,1,09,0.88,-0.7,M,-24.3,M,,*46
$GPGSA,A,3,18,15,23,29,24,13,10,05,27,,,,1.59,0.88,1.32*0D
$GPGSV,4,1,13,05,10,066,24,10,25,275,16,13,22,042,26,15,53,046,23*7C
$GPGSV,4,2,13,16,01,290,,18,64,352,15,23,51,308,21,24,27,128,22*7E
$GPGSV,4,3,13,27,08,322,25,29,39,182,29,32,06,214,20,46,39,234,*7B
$GPGSV,4,4,13,48,43,229,*49
$GPGLL,2934.92961,N,09501.55904,W,224259.00,A,A*78
$GPRMC,224300.00,A,2934.92791,N,09501.55922,W,0.180,,120623,,,A*64
$GPVTG,,T,,M,0.180,N,0.334,K,A*2E
$GPGGA,224300.00,2934.92791,N,09501.55922,W,1,09,0.88,-2.1,M,-24.3,M,,*4A
$GPGSA,A,3,18,15,23,29,24,13,10,05,27,,,,1.59,0.88,1.32*0D
$GPGSV,4,1,13,05,10,066,25,10,25,275,15,13,22,042,26,15,53,046,23*7E
$GPGSV,4,2,13,16,01,290,,18,64,352,13,23,51,308,22,24,27,128,23*7A
$GPGSV,4,3,13,27,08,322,24,29,39,182,29,32,06,214,15,46,39,234,*7C
$GPGSV,4,4,13,48,43,229,*49
$GPGLL,2934.92791,N,09501.55922,W,224300.00,A,A*70
$GPRMC,224301.00,A,2934.92678,N,09501.55937,W,0.101,,120623,,,A*6E
$GPVTG,,T,,M,0.101,N,0.187,K,A*2D
$GPGGA,224301.00,2934.92678,N,09501.55937,W,1,09,0.88,-2.5,M,-24.3,M,,*4D
$GPGSA,A,3,18,15,23,29,24,13,10,05,27,,,,1.59,0.88,1.32*0D
$GPGSV,4,1,13,05,09,066,25,10,25,275,16,13,22,042,26,15,53,046,23*75
$GPGSV,4,2,13,16,01,290,,18,64,352,12,23,51,308,23,24,27,128,25*7C
$GPGSV,4,3,13,27,08,322,25,29,39,182,29,32,06,214,13,46,39,234,*7B
$GPGSV,4,4,13,48,43,229,*49
$GPGLL,2934.92678,N,09501.55937,W,224301.00,A,A*73
$GPRMC,224302.00,A,2934.92550,N,09501.55942,W,0.285,,120623,,,A*69
$GPVTG,,T,,M,0.285,N,0.528,K,A*23
$GPGGA,224302.00,2934.92550,N,09501.55942,W,1,08,0.90,-3.8,M,-24.3,M,,*41
$GPGSA,A,3,15,23,29,24,13,10,05,27,,,,,1.84,0.90,1.60*0A
$GPGSV,4,1,13,05,09,066,24,10,25,275,16,13,22,042,25,15,53,046,22*76
$GPGSV,4,2,13,16,01,290,,18,64,352,09,23,51,308,25,24,27,128,26*73
$GPGSV,4,3,13,27,08,322,25,29,39,182,29,32,06,214,12,46,39,234,*7A
$GPGSV,4,4,13,48,43,229,*49
$GPGLL,2934.92550,N,09501.55942,W,224302.00,A,A*7B
$GPRMC,224303.00,A,2934.92479,N,09501.55946,W,0.230,,120623,,,A*68
$GPVTG,,T,,M,0.230,N,0.425,K,A*21
$GPGGA,224303.00,2934.92479,N,09501.55946,W,1,08,0.90,-3.9,M,-24.3,M,,*4F
$GPGSA,A,3,15,23,29,24,13,10,05,27,,,,,1.84,0.90,1.60*0A
$GPGSV,4,1,13,05,09,066,24,10,25,275,16,13,22,042,25,15,53,046,22*76
$GPGSV,4,2,13,16,01,290,,18,64,352,09,23,51,308,26,24,27,128,26*70
$GPGSV,4,3,13,27,08,322,25,29,39,182,28,32,06,214,10,46,39,234,*79
$GPGSV,4,4,13,48,43,229,*49
$GPGLL,2934.92479,N,09501.55946,W,224303.00,A,A*74
$GPRMC,224304.00,A,2934.92427,N,09501.55926,W,1.178,,120623,,,A*6C
$GPVTG,,T,,M,1.178,N,2.182,K,A*25
$GPGGA,224304.00,2934.92427,N,09501.55926,W,1,09,0.88,-5.5,M,-24.3,M,,*47
$GPGSA,A,3,18,15,23,29,24,13,10,05,27,,,,1.59,0.88,1.32*0D
$GPGSV,4,1,13,05,09,066,22,10,25,275,18,13,22,042,25,15,53,046,20*7C
$GPGSV,4,2,13,16,01,290,,18,64,352,11,23,51,308,24,24,27,128,23*7E
$GPGSV,4,3,13,27,08,322,25,29,39,182,27,32,06,214,10,46,39,234,*76
$GPGSV,4,4,13,48,43,229,*49
$GPGLL,2934.92427,N,09501.55926,W,224304.00,A,A*7E
$GPRMC,224305.00,A,2934.92402,N,09501.55912,W,1.035,,120623,,,A*65
$GPVTG,,T,,M,1.035,N,1.916,K,A*2B
$GPGGA,224305.00,2934.92402,N,09501.55912,W,1,09,0.88,-6.1,M,-24.3,M,,*41
$GPGSA,A,3,18,15,23,29,24,13,10,05,27,,,,1.59,0.88,1.32*0D
$GPGSV,4,1,13,05,09,066,21,10,25,275,19,13,22,042,33,15,53,046,20*79
$GPGSV,4,2,13,16,01,290,,18,64,352,17,23,51,308,22,24,27,128,23*7E
$GPGSV,4,3,13,27,08,322,23,29,39,182,25,32,06,214,10,46,39,234,*72
$GPGSV,4,4,13,48,43,229,*49
$GPGLL,2934.92402,N,09501.55912,W,224305.00,A,A*7F
$GPRMC,224306.00,A,2934.92376,N,09501.55919,W,0.477,,120623,,,A*6A
$GPVTG,,T,,M,0.477,N,0.883,K,A*24
$GPGGA,224306.00,2934.92376,N,09501.55919,W,1,09,0.88,-6.4,M,-24.3,M,,*48
$GPGSA,A,3,18,15,23,29,24,13,10,05,27,,,,1.59,0.88,1.32*0D
$GPGSV,4,1,13,05,09,066,20,10,25,275,21,13,22,042,29,15,53,046,20*78
$GPGSV,4,2,13,16,01,290,,18,64,352,20,23,51,308,20,24,27,128,21*7A
$GPGSV,4,3,13,27,08,322,23,29,39,182,23,32,06,214,10,46,39,234,*74
$GPGSV,4,4,13,48,43,229,*49
$GPGLL,2934.92376,N,09501.55919,W,224306.00,A,A*73
$GPRMC,224307.00,A,2934.92351,N,09501.55972,W,1.762,,120623,,,A*65
$GPVTG,,T,,M,1.762,N,3.264,K,A*22
$GPGGA,224307.00,2934.92351,N,09501.55972,W,1,09,0.88,-7.0,M,-24.3,M,,*44
$GPGSA,A,3,18,15,23,29,24,13,10,05,27,,,,1.59,0.88,1.32*0D
$GPGSV,4,1,13,05,09,066,22,10,25,275,23,13,22,042,28,15,53,046,23*7A
$GPGSV,4,2,13,16,01,290,,18,64,352,19,23,51,308,20,24,27,128,21*70
$GPGSV,4,3,13,27,08,322,22,29,39,182,22,32,06,214,31,46,39,234,*77
$GPGSV,4,4,13,48,43,229,*49
$GPGLL,2934.92351,N,09501.55972,W,224307.00,A,A*7A
$GPRMC,224308.00,A,2934.92343,N,09501.56047,W,2.360,,120623,,,A*60
$GPVTG,,T,,M,2.360,N,4.370,K,A*24
$GPGGA,224308.00,2934.92343,N,09501.56047,W,1,09,0.88,-8.0,M,-24.3,M,,*4B
$GPGSA,A,3,18,15,23,29,24,13,10,05,27,,,,1.59,0.88,1.32*0D
$GPGSV,4,1,13,05,09,066,22,10,25,275,23,13,22,042,27,15,53,046,22*74
$GPGSV,4,2,13,16,01,290,,18,64,352,20,23,51,308,20,24,27,128,21*7A
$GPGSV,4,3,13,27,08,322,22,29,39,182,23,32,06,214,23,46,39,234,*75
$GPGSV,4,4,13,48,43,229,*49
$GPGLL,2934.92343,N,09501.56047,W,224308.00,A,A*7A
$GPRMC,224309.00,A,2934.92277,N,09501.56141,W,3.198,,120623,,,A*64
$GPVTG,,T,,M,3.198,N,5.922,K,A*2C
$GPGGA,224309.00,2934.92277,N,09501.56141,W,1,09,0.88,-9.7,M,-24.3,M,,*4D
$GPGSA,A,3,18,15,23,29,24,13,10,05,27,,,,1.59,0.88,1.32*0D
$GPGSV,4,1,13,05,09,066,21,10,25,275,30,13,22,042,27,15,53,046,21*76
$GPGSV,4,2,13,16,01,290,,18,64,352,19,23,51,308,19,24,27,128,20*7B
$GPGSV,4,3,13,27,08,322,21,29,39,182,23,32,06,214,23,46,39,234,*76
$GPGSV,4,4,13,48,43,229,*49
$GPGLL,2934.92277,N,09501.56141,W,224309.00,A,A*7A
$GPRMC,224310.00,A,2934.92238,N,09501.56217,W,2.382,,120623,,,A*6F
$GPVTG,,T,,M,2.382,N,4.411,K,A*28
$GPGGA,224310.00,2934.92238,N,09501.56217,W,1,09,0.88,-10.3,M,-24.3,M,,*72
$GPGSA,A,3,18,15,23,29,24,13,10,05,27,,,,1.59,0.88,1.32*0D
$GPGSV,4,1,13,05,09,066,21,10,25,275,24,13,22,042,27,15,53,046,20*72
$GPGSV,4,2,13,16,01,290,,18,64,352,19,23,51,308,18,24,27,128,19*70
$GPGSV,4,3,13,27,08,322,28,29,39,182,22,32,06,214,22,46,39,234,*7F
$GPGSV,4,4,13,48,43,229,*49
$GPGLL,2934.92238,N,09501.56217,W,224310.00,A,A*79
$GPRMC,224311.00,A,2934.92204,N,09501.56312,W,2.371,,120623,,,A*69
$GPVTG,,T,,M,2.371,N,4.392,K,A*28
$GPGGA,224311.00,2934.92204,N,09501.56312,W,1,09,0.88,-11.0,M,-24.3,M,,*7A
$GPGSA,A,3,18,15,23,29,24,13,10,05,27,,,,1.59,0.88,1.32*0D
$GPGSV,4,1,13,05,09,066,30,10,25,275,24,13,22,042,24,15,53,046,20*71
$GPGSV,4,2,13,16,01,290,,18,64,352,17,23,51,308,19,24,27,128,19*7F
$GPGSV,4,3,13,27,08,322,30,29,39,182,22,32,06,214,22,46,39,234,*76
$GPGSV,4,4,13,48,43,229,*49
$GPGLL,2934.92204,N,09501.56312,W,224311.00,A,A*73
$GPRMC,224312.00,A,2934.92177,N,09501.56355,W,1.000,,120623,,,A*68
$GPVTG,,T,,M,1.000,N,1.851,K,A*2F
$GPGGA,224312.00,2934.92177,N,09501.56355,W,1,09,0.88,-10.5,M,-24.3,M,,*79
$GPGSA,A,3,18,15,23,29,24,13,10,05,27,,,,1.59,0.88,1.32*0D
$GPGSV,4,1,13,05,09,066,25,10,25,275,30,13,22,042,23,15,53,046,19*7D
$GPGSV,4,2,13,16,01,290,,18,64,352,17,23,51,308,20,24,27,128,18*74
$GPGSV,4,3,13,27,08,322,28,29,39,182,22,32,06,214,23,46,39,234,*7E
$GPGSV,4,4,13,48,43,229,*49
$GPGLL,2934.92177,N,09501.56355,W,224312.00,A,A*74
$GPRMC,224313.00,A,2934.92165,N,09501.56380,W,0.433,,120623,,,A*67
$GPVTG,,T,,M,0.433,N,0.801,K,A*2E
$GPGGA,224313.00,2934.92165,N,09501.56380,W,1,09,0.88,-11.6,M,-24.3,M,,*71
$GPGSA,A,3,18,15,23,29,24,13,10,05,27,,,,1.59,0.88,1.32*0D
$GPGSV,4,1,13,05,09,066,26,10,25,275,30,13,22,042,20,15,53,046,19*7D
$GPGSV,4,2,13,16,01,290,,18,64,353,17,23,51,308,20,24,27,128,17*7A
$GPGSV,4,3,13,27,08,322,32,29,39,182,21,32,06,214,31,46,39,234,*75
$GPGSV,4,4,13,48,43,229,*49
$GPGLL,2934.92165,N,09501.56380,W,224313.00,A,A*7E
$GPRMC,224314.00,A,2934.92166,N,09501.56424,W,0.794,,120623,,,A*64
$GPVTG,,T,,M,0.794,N,1.471,K,A*2A
$GPGGA,224314.00,2934.92166,N,09501.56424,W,1,09,0.88,-12.2,M,-24.3,M,,*7B
$GPGSA,A,3,18,15,23,29,24,13,10,05,27,,,,1.59,0.88,1.32*0D
$GPGSV,4,1,13,05,09,066,25,10,25,275,23,13,22,042,30,15,53,046,21*76
$GPGSV,4,2,13,16,01,290,,18,64,353,18,23,51,308,21,24,27,128,16*75
$GPGSV,4,3,13,27,08,322,31,29,39,182,21,32,06,214,31,46,39,234,*76
$GPGSV,4,4,13,48,43,229,*49
$GPGLL,2934.92166,N,09501.56424,W,224314.00,A,A*73
$GPRMC,224315.00,A,2934.92196,N,09501.56543,W,2.135,,120623,,,A*65
$GPVTG,,T,,M,2.135,N,3.953,K,A*2A
$GPGGA,224315.00,2934.92196,N,09501.56543,W,1,09,0.88,-12.1,M,-24.3,M,,*76
$GPGSA,A,3,18,15,23,29,24,13,10,05,27,,,,1.59,0.88,1.32*0D
$GPGSV,4,1,13,05,09,066,30,10,25,275,23,13,22,042,34,15,53,046,29*7E
$GPGSV,4,2,13,16,01,290,,18,64,353,21,23,51,308,28,24,27,128,17*77
$GPGSV,4,3,13,27,08,322,36,29,39,182,19,32,06,214,30,46,39,234,*7B
$GPGSV,4,4,13,48,43,229,*49
$GPGLL,2934.92196,N,09501.56543,W,224315.00,A,A*7D
$GPRMC,224316.00,A,2934.92307,N,09501.56723,W,4.742,24.81,120623,,,A*49
$GPVTG,24.81,T,,M,4.742,N,8.781,K,A*01
$GPGGA,224316.00,2934.92307,N,09501.56723,W,1,07,2.07,-6.8,M,-24.3,M,,*4C
$GPGSA,A,3,18,15,23,13,10,05,27,,,,,,2.49,2.07,1.38*0D
$GPGSV,4,1,13,05,09,066,41,10,25,275,31,13,22,042,44,15,53,046,40*73
$GPGSV,4,2,13,16,01,290,,18,64,353,37,23,51,308,32,24,27,128,*7D
$GPGSV,4,3,13,27,08,322,30,29,39,182,,32,06,214,29,46,39,234,*7D
$GPGSV,4,4,13,48,43,229,*49
$GPGLL,2934.92307,N,09501.56723,W,224316.00,A,A*70
$GPRMC,224317.00,A,2934.92380,N,09501.56817,W,4.346,8.03,120623,,,A*7B
$GPVTG,8.03,T,,M,4.346,N,8.049,K,A*36
$GPGGA,224317.00,2934.92380,N,09501.56817,W,1,07,2.07,-5.6,M,-24.3,M,,*47
$GPGSA,A,3,18,15,23,13,10,05,27,,,,,,2.49,2.07,1.38*0D
$GPGSV,4,1,13,05,09,066,42,10,25,275,45,13,22,042,44,15,53,046,49*7A
$GPGSV,4,2,13,16,01,290,,18,64,353,44,23,51,308,46,24,27,128,*7A
$GPGSV,4,3,13,27,08,322,35,29,39,182,,32,06,214,29,46,39,234,*78
$GPGSV,4,4,13,48,43,229,*49
$GPGLL,2934.92380,N,09501.56817,W,224317.00,A,A*76
$GPRMC,224318.00,A,2934.92436,N,09501.56891,W,3.349,5.18,120623,,,A*7F
$GPVTG,5.18,T,,M,3.349,N,6.203,K,A*3B
$GPGGA,224318.00,2934.92436,N,09501.56891,W,1,07,2.07,-4.7,M,-24.3,M,,*4C
$GPGSA,A,3,18,15,23,13,10,05,27,,,,,,2.49,2.07,1.38*0D
$GPGSV,4,1,13,05,09,066,38,10,25,275,44,13,22,042,42,15,53,046,48*71
$GPGSV,4,2,13,16,01,290,,18,64,353,45,23,51,308,47,24,27,128,17*7C
$GPGSV,4,3,13,27,08,322,30,29,39,182,,32,06,214,23,46,39,234,*77
$GPGSV,4,4,13,48,43,229,*49
$GPGLL,2934.92436,N,09501.56891,W,224318.00,A,A*7D
$GPRMC,224319.00,A,2934.92449,N,09501.56961,W,2.010,4.53,120623,,,A*78
$GPVTG,4.53,T,,M,2.010,N,3.722,K,A*38
$GPGGA,224319.00,2934.92449,N,09501.56961,W,1,07,2.07,-4.0,M,-24.3,M,,*4C
$GPGSA,A,3,18,15,23,13,10,05,27,,,,,,2.49,2.07,1.38*0D
$GPGSV,4,1,13,05,09,066,41,10,25,275,43,13,22,042,46,15,53,046,48*7C
$GPGSV,4,2,13,16,01,290,23,18,64,353,43,23,51,308,41,24,27,128,21*78
$GPGSV,4,3,13,27,08,322,34,29,39,182,24,32,06,214,22,46,39,234,*74
$GPGSV,4,4,13,48,43,229,*49
$GPGLL,2934.92449,N,09501.56961,W,224319.00,A,A*7A
$GPRMC,224320.00,A,2934.92445,N,09501.56999,W,0.690,4.54,120623,,,A*72
$GPVTG,4.54,T,,M,0.690,N,1.278,K,A*3B
$GPGGA,224320.00,2934.92445,N,09501.56999,W,1,07,2.07,-2.9,M,-24.3,M,,*42
$GPGSA,A,3,18,15,23,13,10,05,27,,,,,,2.49,2.07,1.38*0D
$GPGSV,4,1,13,05,09,066,39,10,25,275,44,13,22,042,42,15,53,046,48*70
$GPGSV,4,2,13,16,01,290,,18,64,353,43,23,51,308,43,24,27,128,19*70
$GPGSV,4,3,13,27,08,322,33,29,39,182,24,32,06,214,23,46,39,234,*72
$GPGSV,4,4,13,48,43,229,*49
$GPGLL,2934.92445,N,09501.56999,W,224320.00,A,A*7B
$GPRMC,224321.00,A,2934.92443,N,09501.57034,W,0.284,357.95,120623,,,A*73
$GPVTG,357.95,T,,M,0.284,N,0.526,K,A*3F
$GPGGA,224321.00,2934.92443,N,09501.57034,W,1,07,2.07,-2.6,M,-24.3,M,,*45
$GPGSA,A,3,18,15,23,13,10,05,27,,,,,,2.49,2.07,1.38*0D
$GPGSV,4,1,13,05,09,066,35,10,25,275,46,13,22,042,44,15,53,046,48*78
$GPGSV,4,2,13,16,01,290,,18,64,353,41,23,51,308,41,24,27,128,18*71
$GPGSV,4,3,13,27,08,322,32,29,39,182,26,32,06,214,22,46,39,234,*70
$GPGSV,4,4,13,48,43,229,*49
$GPGLL,2934.92443,N,09501.57034,W,224321.00,A,A*73
$GPRMC,224322.00,A,2934.92463,N,09501.57066,W,0.131,,120623,,,A*6B
$GPVTG,,T,,M,0.131,N,0.243,K,A*25
$GPGGA,224322.00,2934.92463,N,09501.57066,W,1,09,1.01,-2.0,M,-24.3,M,,*4E
$GPGSA,A,3,18,15,23,29,24,13,10,05,27,,,,1.68,1.01,1.34*09
$GPGSV,4,1,13,05,09,066,36,10,25,275,46,13,22,042,44,15,53,046,48*7B
$GPGSV,4,2,13,16,01,290,,18,64,353,42,23,51,308,40,24,27,128,20*78
$GPGSV,4,3,13,27,08,322,32,29,39,182,26,32,06,214,21,46,39,234,42*75
$GPGSV,4,4,13,48,43,229,44*49
$GPGLL,2934.92463,N,09501.57066,W,224322.00,A,A*75
$GPRMC,224323.00,A,2934.92480,N,09501.57093,W,0.037,,120623,,,A*6A
$GPVTG,,T,,M,0.037,N,0.068,K,A*29
$GPGGA,224323.00,2934.92480,N,09501.57093,W,1,09,0.88,-1.6,M,-24.3,M,,*4D
$GPGSA,A,3,18,15,23,29,24,13,10,05,27,,,,1.59,0.88,1.32*0D
$GPGSV,4,1,13,05,09,066,36,10,25,275,46,13,22,042,44,15,53,046,47*74
$GPGSV,4,2,13,16,01,290,,18,64,353,42,23,51,308,40,24,27,128,21*79
$GPGSV,4,3,13,27,08,322,32,29,39,182,27,32,06,214,19,46,39,234,42*7F
$GPGSV,4,4,13,48,43,229,44*49
$GPGLL,2934.92480,N,09501.57093,W,224323.00,A,A*73
$GPRMC,224324.00,A,2934.92480,N,09501.57112,W,0.051,,120623,,,A*65
$GPVTG,,T,,M,0.051,N,0.094,K,A*2A
$GPGGA,224324.00,2934.92480,N,09501.57112,W,1,09,1.01,-1.2,M,-24.3,M,,*46
$GPGSA,A,3,18,15,23,29,24,13,10,05,27,,,,1.68,1.01,1.34*09
$GPGSV,4,1,13,05,09,066,36,10,25,275,46,13,22,042,44,15,53,046,48*7B
$GPGSV,4,2,13,16,01,290,,18,64,353,42,23,51,308,40,24,27,128,22*7A
$GPGSV,4,3,13,27,08,322,31,29,39,182,26,32,06,214,19,46,39,234,42*7D
$GPGSV,4,4,13,48,43,229,44*49
$GPGLL,2934.92480,N,09501.57112,W,224324.00,A,A*7C
$GPRMC,224325.00,A,2934.92475,N,09501.57128,W,0.080,,120623,,,A*6B
$GPVTG,,T,,M,0.080,N,0.148,K,A*26
$GPGGA,224325.00,2934.92475,N,09501.57128,W,1,09,1.01,-0.8,M,-24.3,M,,*4F
$GPGSA,A,3,18,15,23,29,24,13,10,05,27,,,,1.68,1.01,1.34*09
$GPGSV,4,1,13,05,09,066,36,10,25,275,46,13,22,042,45,15,53,046,48*7A
$GPGSV,4,2,13,16,01,290,,18,64,353,42,23,51,308,40,24,27,128,20*78
$GPGSV,4,3,13,27,08,322,31,29,39,182,26,32,06,214,20,46,39,234,42*77
$GPGSV,4,4,13,48,43,229,44*49
$GPGLL,2934.92475,N,09501.57128,W,224325.00,A,A*7E
$GPRMC,224326.00,A,2934.92473,N,09501.57144,W,0.025,,120623,,,A*6B
$GPVTG,,T,,M,0.025,N,0.047,K,A*27
$GPGGA,224326.00,2934.92473,N,09501.57144,W,1,09,1.01,-0.4,M,-24.3,M,,*4C
$GPGSA,A,3,18,15,23,29,24,13,10,05,27,,,,1.68,1.01,1.34*09
$GPGSV,4,1,13,05,09,066,37,10,25,275,46,13,22,042,45,15,53,046,48*7B
$GPGSV,4,2,13,16,01,290,,18,64,353,42,23,51,308,40,24,27,128,21*79
$GPGSV,4,3,13,27,08,322,31,29,39,182,26,32,06,214,21,46,39,234,43*77
$GPGSV,4,4,13,48,43,229,44*49
$GPGLL,2934.92473,N,09501.57144,W,224326.00,A,A*71
$GPRMC,224327.00,A,2934.92483,N,09501.57159,W,0.233,,120623,,,A*6C
$GPVTG,,T,,M,0.233,N,0.432,K,A*24
$GPGGA,224327.00,2934.92483,N,09501.57159,W,1,08,1.10,0.1,M,-24.3,M,,*67
$GPGSA,A,3,18,15,23,24,13,10,05,27,,,,,1.72,1.10,1.32*0F
$GPGSV,4,1,13,05,09,066,38,10,25,275,43,13,22,042,45,15,53,046,48*71
$GPGSV,4,2,13,16,01,290,,18,64,353,45,23,51,308,43,24,27,128,21*7D
$GPGSV,4,3,13,27,08,322,32,29,39,182,,32,06,214,20,46,39,234,41*73
$GPGSV,4,4,13,48,43,229,46*4B
$GPGLL,2934.92483,N,09501.57159,W,224327.00,A,A*73
$GPRMC,224328.00,A,2934.92477,N,09501.57175,W,0.300,,120623,,,A*67
$GPVTG,,T,,M,0.300,N,0.555,K,A*25
$GPGGA,224328.00,2934.92477,N,09501.57175,W,1,07,2.07,0.4,M,-24.3,M,,*62
$GPGSA,A,3,18,15,23,13,10,05,27,,,,,,2.49,2.07,1.38*0D
$GPGSV,4,1,13,05,09,066,41,10,25,275,42,13,22,042,43,15,53,046,49*79
$GPGSV,4,2,13,16,01,290,,18,64,353,44,23,51,308,41,24,27,128,22*7D
$GPGSV,4,3,13,27,08,322,29,29,39,182,,32,06,214,20,46,39,234,41*79
$GPGSV,4,4,13,48,43,229,46*4B
$GPGLL,2934.92477,N,09501.57175,W,224328.00,A,A*79
$GPRMC,224329.00,A,2934.92475,N,09501.57190,W,0.356,,120623,,,A*6C
$GPVTG,,T,,M,0.356,N,0.660,K,A*23
$GPGGA,224329.00,2934.92475,N,09501.57190,W,1,07,2.07,0.6,M,-24.3,M,,*68
$GPGSA,A,3,18,15,23,13,10,05,27,,,,,,2.49,2.07,1.38*0D
$GPGSV,4,1,13,05,09,066,43,10,25,275,44,13,22,042,44,15,53,046,49*7A
$GPGSV,4,2,13,16,01,290,,18,64,353,43,23,51,308,42,24,27,128,19*71
$GPGSV,4,3,13,27,08,322,28,29,39,182,17,32,06,214,,46,39,234,43*7E
$GPGSV,4,4,13,48,43,229,45*48
$GPGLL,2934.92475,N,09501.57190,W,224329.00,A,A*71
$GPRMC,224330.00,A,2934.92468,N,09501.57207,W,0.198,,120623,,,A*65
$GPVTG,,T,,M,0.198,N,0.366,K,A*20
$GPGGA,224330.00,2934.92468,N,09501.57207,W,1,07,2.07,0.7,M,-24.3,M,,*60
$GPGSA,A,3,18,15,23,13,10,05,27,,,,,,2.49,2.07,1.38*0D
$GPGSV,4,1,13,05,09,066,40,10,25,275,45,13,22,042,46,15,53,046,48*7B
$GPGSV,4,2,13,16,01,290,,18,64,353,45,23,51,308,44,24,27,128,19*71
$GPGSV,4,3,13,27,08,322,20,29,39,182,,32,06,214,,46,39,234,43*70
$GPGSV,4,4,13,48,43,229,44*49
$GPGLL,2934.92468,N,09501.57207,W,224330.00,A,A*78
$GPRMC,224331.00,A,2934.92467,N,09501.57226,W,0.245,,120623,,,A*6B
$GPVTG,,T,,M,0.245,N,0.454,K,A*25
$GPGGA,224331.00,2934.92467,N,09501.57226,W,1,07,2.07,0.8,M,-24.3,M,,*62
$GPGSA,A,3,18,15,23,13,10,05,27,,,,,,2.49,2.07,1.38*0D
$GPGSV,4,1,13,05,09,066,42,10,25,275,45,13,22,042,43,15,53,046,49*7D
$GPGSV,4,2,13,16,01,290,,18,64,353,43,23,51,308,39,24,27,128,*75
$GPGSV,4,3,13,27,08,322,28,29,39,182,,32,06,214,,46,39,234,43*78
$GPGSV,4,4,13,48,43,229,43*4E
$GPGLL,2934.92467,N,09501.57226,W,224331.00,A,A*75
$GPRMC,224332.00,A,2934.92463,N,09501.57244,W,0.137,,120623,,,A*6E
$GPVTG,,T,,M,0.137,N,0.254,K,A*25
$GPGGA,224332.00,2934.92463,N,09501.57244,W,1,06,3.80,0.9,M,-24.3,M,,*6F
$GPGSA,A,3,18,15,23,13,10,05,,,,,,,4.21,3.80,1.81*0C
$GPGSV,4,1,13,05,09,066,41,10,25,275,45,13,22,042,46,15,53,046,48*7A
$GPGSV,4,2,13,16,01,290,,18,64,353,43,23,51,308,42,24,27,128,20*7B
$GPGSV,4,3,13,27,08,322,29,29,39,182,,32,06,214,,46,39,234,44*7E
$GPGSV,4,4,13,48,43,229,42*4F
$GPGLL,2934.92463,N,09501.57244,W,224332.00,A,A*76
$GPRMC,224333.00,A,2934.92458,N,09501.57260,W,0.149,,120623,,,A*68
$GPVTG,,T,,M,0.149,N,0.276,K,A*2C
$GPGGA,224333.00,2934.92458,N,09501.57260,W,1,06,3.80,0.9,M,-24.3,M,,*60
$GPGSA,A,3,18,15,23,13,10,05,,,,,,,4.21,3.80,1.81*0C
$GPGSV,4,1,13,05,09,066,38,10,25,275,45,13,22,042,44,15,53,046,48*76
$GPGSV,4,2,13,16,01,290,,18,64,353,43,23,51,308,43,24,27,128,22*78
$GPGSV,4,3,13,27,08,322,,29,39,182,,32,06,214,,46,39,234,43*72
$GPGSV,4,4,13,48,43,229,43*4E
$GPGLL,2934.92458,N,09501.57260,W,224333.00,A,A*79
$GPRMC,224334.00,A,2934.92505,N,09501.57283,W,1.340,356.91,120623,,,A*77
$GPVTG,356.91,T,,M,1.340,N,2.482,K,A*3F
$GPGGA,224334.00,2934.92505,N,09501.57283,W,1,07,1.23,0.9,M,-24.3,M,,*69
$GPGSA,A,3,18,15,23,24,13,10,05,,,,,,2.07,1.23,1.67*0B
$GPGSV,4,1,13,05,09,066,33,10,25,275,45,13,22,042,45,15,53,046,46*72
$GPGSV,4,2,13,16,01,290,,18,64,353,45,23,51,308,41,24,27,128,21*7F
$GPGSV,4,3,13,27,08,322,,29,39,182,,32,06,214,,46,39,234,40*71
$GPGSV,4,4,13,48,43,229,42*4F
$GPGLL,2934.92505,N,09501.57283,W,224334.00,A,A*7A
$GPRMC,224335.00,A,2934.92570,N,09501.57299,W,2.150,0.70,120623,,,A*70
$GPVTG,0.70,T,,M,2.150,N,3.982,K,A*3C
$GPGGA,224335.00,2934.92570,N,09501.57299,W,1,08,1.10,1.1,M,-24.3,M,,*67
$GPGSA,A,3,18,15,23,24,13,10,05,27,,,,,1.72,1.10,1.32*0F
$GPGSV,4,1,13,05,09,066,38,10,25,275,44,13,22,042,43,15,53,046,49*71
$GPGSV,4,2,13,16,01,290,,18,64,353,42,23,51,308,41,24,27,128,20*79
$GPGSV,4,3,13,27,08,322,31,29,39,182,,32,06,214,25,46,39,234,37*74
$GPGSV,4,4,13,48,43,229,43*4E
$GPGLL,2934.92570,N,09501.57299,W,224335.00,A,A*72
$GPRMC,224336.00,A,2934.92646,N,09501.57336,W,3.019,344.58,120623,,,A*75
$GPVTG,344.58,T,,M,3.019,N,5.592,K,A*33
$GPGGA,224336.00,2934.92646,N,09501.57336,W,1,08,2.07,1.2,M,-24.3,M,,*60
$GPGSA,A,3,18,15,23,24,13,10,05,27,,,,,2.49,2.07,1.38*0B
$GPGSV,4,1,13,05,09,066,36,10,25,275,44,13,22,042,40,15,53,046,46*73
$GPGSV,4,2,13,16,01,290,,18,64,353,44,23,51,308,44,24,27,128,21*7B
$GPGSV,4,3,13,27,08,322,30,29,39,182,28,32,06,214,26,46,39,234,39*72
$GPGSV,4,4,13,48,43,229,31*4B
$GPGLL,2934.92646,N,09501.57336,W,224336.00,A,A*73
$GPRMC,224337.00,A,2934.92725,N,09501.57430,W,4.164,330.25,120623,,,A*74
$GPVTG,330.25,T,,M,4.164,N,7.712,K,A*3E
$GPGGA,224337.00,2934.92725,N,09501.57430,W,1,09,0.88,1.2,M,-24.3,M,,*60
$GPGSA,A,3,18,15,23,29,24,13,10,05,27,,,,1.59,0.88,1.32*0D
$GPGSV,4,1,13,05,09,066,28,10,25,275,43,13,22,042,45,15,53,046,47*7F
$GPGSV,4,2,13,16,01,290,,18,64,353,46,23,51,308,43,24,27,128,22*7D
$GPGSV,4,3,13,27,08,322,34,29,39,182,27,32,06,214,27,46,39,234,43*75
$GPGSV,4,4,13,48,43,229,43*4E
$GPGLL,2934.92725,N,09501.57430,W,224337.00,A,A*77
$GPRMC,224338.00,A,2934.92785,N,09501.57597,W,6.002,307.88,120623,,,A*7D
$GPVTG,307.88,T,,M,6.002,N,11.116,K,A*0B
$GPGGA,224338.00,2934.92785,N,09501.57597,W,1,09,0.88,1.2,M,-24.3,M,,*69
$GPGSA,A,3,18,15,23,29,24,13,10,05,27,,,,1.59,0.88,1.32*0D
$GPGSV,4,1,13,05,09,066,26,10,25,275,43,13,22,042,33,15,53,046,46*71
$GPGSV,4,2,13,16,01,290,,18,64,353,47,23,51,308,46,24,27,128,23*78
$GPGSV,4,3,13,27,08,322,29,29,39,182,27,32,06,214,38,46,39,234,45*71
$GPGSV,4,4,13,48,43,229,44*49
$GPGLL,2934.92785,N,09501.57597,W,224338.00,A,A*7E
$GPRMC,224339.00,A,2934.92728,N,09501.57825,W,7.724,273.01,120623,,,A*7E
$GPVTG,273.01,T,,M,7.724,N,14.304,K,A*0E
$GPGGA,224339.00,2934.92728,N,09501.57825,W,1,09,0.88,1.2,M,-24.3,M,,*6B
$GPGSA,A,3,18,15,23,29,24,13,10,05,27,,,,1.59,0.88,1.32*0D
$GPGSV,4,1,13,05,09,066,25,10,25,275,44,13,22,042,39,15,53,046,49*70
$GPGSV,4,2,13,16,01,290,,18,64,353,47,23,51,308,47,24,27,128,23*79
$GPGSV,4,3,13,27,08,322,28,29,39,182,45,32,06,214,38,46,39,234,42*73
$GPGSV,4,4,13,48,43,229,39*43
$GPGLL,2934.92728,N,09501.57825,W,224339.00,A,A*7C
$GPRMC,224340.00,A,2934.92640,N,09501.58080,W,8.467,253.18,120623,,,A*76
$GPVTG,253.18,T,,M,8.467,N,15.681,K,A*06
$GPGGA,224340.00,2934.92640,N,09501.58080,W,1,09,0.88,1.2,M,-24.3,M,,*62
$GPGSA,A,3,18,15,23,29,24,13,10,05,27,,,,1.59,0.88,1.32*0D
$GPGSV,4,1,13,05,09,066,27,10,25,275,43,13,22,042,39,15,53,046,49*75
$GPGSV,4,2,13,16,01,290,,18,64,353,47,23,51,308,47,24,27,128,22*78
$GPGSV,4,3,13,27,08,322,35,29,39,182,45,32,06,214,33,46,39,234,46*70
$GPGSV,4,4,13,48,43,229,43*4E
$GPGLL,2934.92640,N,09501.58080,W,224340.00,A,A*75
$GPRMC,224341.00,A,2934.92480,N,09501.58325,W,9.406,232.68,120623,,,A*73
$GPVTG,232.68,T,,M,9.406,N,17.419,K,A*01
$GPGGA,224341.00,2934.92480,N,09501.58325,W,1,08,0.98,1.1,M,-24.3,M,,*62
$GPGSA,A,3,18,15,23,29,24,13,10,05,,,,,1.92,0.98,1.65*0C
$GPGSV,4,1,13,05,09,066,32,10,25,275,44,13,22,042,36,15,53,046,48*78
$GPGSV,4,2,13,16,01,290,,18,64,353,48,23,51,308,46,24,27,128,21*75
$GPGSV,4,3,13,27,08,322,31,29,39,182,42,32,06,214,38,46,39,234,45*7B
$GPGSV,4,4,13,48,43,229,45*48
$GPGLL,2934.92480,N,09501.58325,W,224341.00,A,A*76
$GPRMC,224342.00,A,2934.92226,N,09501.58511,W,10.681,209.39,120623,,,A*42
$GPVTG,209.39,T,,M,10.681,N,19.781,K,A*34
$GPGGA,224342.00,2934.92226,N,09501.58511,W,1,09,0.88,1.1,M,-24.3,M,,*6A
$GPGSA,A,3,18,15,23,29,24,13,10,05,27,,,,1.59,0.88,1.32*0D
$GPGSV,4,1,13,05,09,066,35,10,25,275,44,13,22,042,38,15,53,046,48*71
$GPGSV,4,2,13,16,01,290,,18,64,353,49,23,51,308,46,24,27,128,19*7F
$GPGSV,4,3,13,27,08,322,31,29,39,182,46,32,06,214,35,46,39,234,44*73
$GPGSV,4,4,13,48,43,229,43*4E
$GPGLL,2934.92226,N,09501.58511,W,224342.00,A,A*7E
$GPRMC,224343.00,A,2934.91946,N,09501.58619,W,10.422,195.63,120623,,,A*44
$GPVTG,195.63,T,,M,10.422,N,19.301,K,A*3A
$GPGGA,224343.00,2934.91946,N,09501.58619,W,1,09,0.88,1.0,M,-24.3,M,,*6F
$GPGSA,A,3,18,15,23,29,24,13,10,05,27,,,,1.59,0.88,1.32*0D
$GPGSV,4,1,13,05,09,066,35,10,25,275,46,13,22,042,41,15,53,046,47*72
$GPGSV,4,2,13,16,01,290,,18,64,353,48,23,51,308,47,24,27,128,19*7F
$GPGSV,4,3,13,27,08,322,25,29,39,182,46,32,06,214,42,46,39,234,43*71
$GPGSV,4,4,13,48,43,229,45*48
$GPGLL,2934.91946,N,09501.58619,W,224343.00,A,A*7A
$GPRMC,224344.00,A,2934.91635,N,09501.58658,W,11.041,184.61,120623,,,A*4F
$GPVTG,184.61,T,,M,11.041,N,20.447,K,A*37
$GPGGA,224344.00,2934.91635,N,09501.58658,W,1,09,0.88,1.0,M,-24.3,M,,*66
$GPGSA,A,3,18,15,23,29,24,13,10,05,27,,,,1.59,0.88,1.32*0D
$GPGSV,4,1,13,05,09,066,32,10,25,275,44,13,22,042,41,15,53,046,44*74
$GPGSV,4,2,13,16,01,290,,18,64,353,47,23,51,308,48,24,27,128,19*7F
$GPGSV,4,3,13,27,08,322,37,29,39,182,46,32,06,214,40,46,39,234,41*72
$GPGSV,4,4,13,48,43,229,45*48
$GPGLL,2934.91635,N,09501.58658,W,224344.00,A,A*73
$GPRMC,224345.00,A,2934.91307,N,09501.58661,W,11.507,180.10,120623,,,A*45
$GPVTG,180.10,T,,M,11.507,N,21.311,K,A*37
$GPGGA,224345.00,2934.91307,N,09501.58661,W,1,09,0.88,1.0,M,-24.3,M,,*69
$GPGSA,A,3,18,15,23,29,24,13,10,05,27,,,,1.59,0.88,1.33*0C
$GPGSV,4,1,13,05,09,066,26,10,25,275,45,13,22,042,44,15,53,046,42*73
$GPGSV,4,2,13,16,01,290,,18,64,353,48,23,51,308,47,24,27,128,40*73
$GPGSV,4,3,13,27,08,322,34,29,39,182,46,32,06,214,41,46,39,234,44*75
$GPGSV,4,4,13,48,43,229,44*49
$GPGLL,2934.91307,N,09501.58661,W,224345.00,A,A*7C
$GPRMC,224346.00,A,2934.91075,N,09501.58661,W,8.429,178.11,120623,,,A*73
$GPVTG,178.11,T,,M,8.429,N,15.610,K,A*07
$GPGGA,224346.00,2934.91075,N,09501.58661,W,1,09,0.94,1.1,M,-24.3,M,,*60
$GPGSA,A,3,18,15,23,29,24,13,10,05,27,,,,1.78,0.94,1.50*07
$GPGSV,4,1,13,05,09,066,23,10,25,275,35,13,22,042,45,15,53,046,39*7C
$GPGSV,4,2,13,16,01,290,,18,64,353,48,23,51,308,47,24,27,128,42*71
$GPGSV,4,3,13,27,08,322,37,29,39,182,46,32,06,214,39,46,39,234,46*7B
$GPGSV,4,4,13,48,43,229,45*48
$GPGLL,2934.91075,N,09501.58661,W,224346.00,A,A*79
$GPRMC,224347.00,A,2934.90862,N,09501.58649,W,6.913,177.36,120623,,,A*77
$GPVTG,177.36,T,,M,6.913,N,12.803,K,A*0C
$GPGGA,224347.00,2934.90862,N,09501.58649,W,1,08,0.94,1.0,M,-24.3,M,,*64
$GPGSA,A,3,18,15,23,29,24,13,10,27,,,,,1.78,0.94,1.50*02
$GPGSV,4,1,13,05,09,066,,10,25,275,42,13,22,042,29,15,53,046,39*77
$GPGSV,4,2,13,16,01,290,,18,64,353,48,23,51,308,47,24,27,128,40*73
$GPGSV,4,3,13,27,08,322,31,29,39,182,45,32,06,214,37,46,39,234,46*70
$GPGSV,4,4,13,48,43,229,44*49
$GPGLL,2934.90862,N,09501.58649,W,224347.00,A,A*7D
$GPRMC,224348.00,A,2934.90660,N,09501.58631,W,6.759,175.05,120623,,,A*79
$GPVTG,175.05,T,,M,6.759,N,12.518,K,A*09
$GPGGA,224348.00,2934.90660,N,09501.58631,W,1,08,0.94,0.9,M,-24.3,M,,*60
$GPGSA,A,3,18,15,23,29,24,13,10,27,,,,,1.78,0.94,1.50*02
$GPGSV,4,1,13,05,09,066,,10,25,276,41,13,22,042,29,15,53,046,37*79
$GPGSV,4,2,13,16,01,290,,18,64,353,48,23,51,308,47,24,27,128,38*7C
$GPGSV,4,3,13,27,08,322,30,29,39,182,45,32,06,214,38,46,39,234,42*7A
$GPGSV,4,4,13,48,43,229,39*43
$GPGLL,2934.90660,N,09501.58631,W,224348.00,A,A*71
$GPRMC,224349.00,A,2934.90496,N,09501.58614,W,5.063,174.72,120623,,,A*78
$GPVTG,174.72,T,,M,5.063,N,9.377,K,A*30
$GPGGA,224349.00,2934.90496,N,09501.58614,W,1,08,0.94,0.8,M,-24.3,M,,*6C
$GPGSA,A,3,18,15,23,29,24,13,10,27,,,,,1.78,0.94,1.51*03
$GPGSV,4,1,13,05,09,066,,10,25,276,40,13,22,042,23,15,53,046,38*7D
$GPGSV,4,2,13,16,01,290,,18,64,353,48,23,51,308,47,24,27,128,43*70
$GPGSV,4,3,13,27,08,322,32,29,39,182,46,32,06,214,39,46,39,234,46*7E
$GPGSV,4,4,13,48,43,229,47*4A
$GPGLL,2934.90496,N,09501.58614,W,224349.00,A,A*7C
$GPRMC,224350.00,A,2934.90428,N,09501.58606,W,1.108,174.82,120623,,,A*71
$GPVTG,174.82,T,,M,1.108,N,2.052,K,A*38
$GPGGA,224350.00,2934.90428,N,09501.58606,W,1,07,1.16,0.7,M,-24.3,M,,*69
$GPGSA,A,3,18,15,23,29,24,10,27,,,,,,2.03,1.16,1.67*00
$GPGSV,4,1,13,05,09,066,,10,25,276,31,13,22,042,,15,53,046,38*7A
$GPGSV,4,2,13,16,01,290,,18,64,353,47,23,51,308,46,24,27,128,40*7D
$GPGSV,4,3,13,27,08,322,40,29,39,182,46,32,06,214,38,46,39,234,46*7A
$GPGSV,4,4,13,48,43,229,46*4B
$GPGLL,2934.90428,N,09501.58606,W,224350.00,A,A*72
$GPRMC,224351.00,A,2934.90412,N,09501.58606,W,0.036,,120623,,,A*62
$GPVTG,,T,,M,0.036,N,0.067,K,A*27
$GPGGA,224351.00,2934.90412,N,09501.58606,W,1,07,1.16,0.6,M,-24.3,M,,*60
$GPGSA,A,3,18,15,23,29,24,10,27,,,,,,2.03,1.16,1.67*00
$GPGSV,4,1,13,05,09,066,28,10,25,276,27,13,22,041,,15,53,046,39*75
$GPGSV,4,2,13,16,01,290,,18,64,353,47,23,51,308,47,24,27,128,40*7C
$GPGSV,4,3,13,27,08,322,41,29,39,182,46,32,06,214,38,46,39,234,45*78
$GPGSV,4,4,13,48,43,229,46*4B
$GPGLL,2934.90412,N,09501.58606,W,224351.00,A,A*7A
$GPRMC,224352.00,A,2934.90407,N,09501.58610,W,0.020,,120623,,,A*65
$GPVTG,,T,,M,0.020,N,0.037,K,A*25
$GPGGA,224352.00,2934.90407,N,09501.58610,W,1,08,0.95,0.7,M,-24.3,M,,*64
$GPGSA,A,3,18,15,23,29,24,10,05,27,,,,,1.64,0.95,1.33*0C
$GPGSV,4,1,13,05,09,066,28,10,25,276,27,13,22,041,,15,53,046,39*75
$GPGSV,4,2,13,16,01,290,,18,64,353,47,23,51,308,47,24,27,128,39*72
$GPGSV,4,3,13,27,08,322,40,29,39,182,47,32,06,214,38,46,39,234,45*78
$GPGSV,4,4,13,48,43,229,46*4B
$GPGLL,2934.90407,N,09501.58610,W,224352.00,A,A*7A
$GPRMC,224353.00,A,2934.90400,N,09501.58615,W,0.014,,120623,,,A*61
$GPVTG,,T,,M,0.014,N,0.026,K,A*22
$GPGGA,224353.00,2934.90400,N,09501.58615,W,1,08,0.95,0.7,M,-24.3,M,,*67
$GPGSA,A,3,18,15,23,29,24,10,05,27,,,,,1.64,0.95,1.33*0C
$GPGSV,4,1,13,05,09,066,28,10,25,276,30,13,22,041,,15,52,046,39*72
$GPGSV,4,2,13,16,01,290,,18,64,353,47,23,51,308,47,24,27,128,40*7C
$GPGSV,4,3,13,27,08,322,40,29,39,182,46,32,06,214,40,46,39,234,45*76
$GPGSV,4,4,13,48,43,229,46*4B
$GPGLL,2934.90400,N,09501.58615,W,224353.00,A,A*79
$GPRMC,224354.00,A,2934.90394,N,09501.58620,W,0.011,,120623,,,A*6F
$GPVTG,,T,,M,0.011,N,0.021,K,A*20
$GPGGA,224354.00,2934.90394,N,09501.58620,W,1,08,1.16,0.6,M,-24.3,M,,*67
$GPGSA,A,3,18,15,23,29,24,10,05,27,,,,,2.03,1.16,1.67*05
$GPGSV,4,1,13,05,09,066,28,10,25,276,31,13,22,041,,15,52,046,39*73
$GPGSV,4,2,13,16,01,290,,18,64,353,47,23,51,308,47,24,27,128,40*7C
$GPGSV,4,3,13,27,08,322,40,29,39,182,46,32,06,214,40,46,39,234,45*76
$GPGSV,4,4,13,48,43,229,45*48
$GPGLL,2934.90394,N,09501.58620,W,224354.00,A,A*72
$GPRMC,224355.00,A,2934.90389,N,09501.58622,W,0.011,,120623,,,A*60
$GPVTG,,T,,M,0.011,N,0.021,K,A*20
$GPGGA,224355.00,2934.90389,N,09501.58622,W,1,08,1.16,0.5,M,-24.3,M,,*6B
$GPGSA,A,3,18,15,23,29,24,10,05,27,,,,,2.03,1.16,1.67*05
$GPGSV,4,1,13,05,09,066,28,10,25,276,31,13,22,041,,15,52,046,39*73
$GPGSV,4,2,13,16,01,290,,18,64,353,46,23,51,308,47,24,27,128,40*7D
$GPGSV,4,3,13,27,08,322,39,29,39,182,45,32,06,214,39,46,39,234,45*75
$GPGSV,4,4,13,48,43,229,45*48
$GPGLL,2934.90389,N,09501.58622,W,224355.00,A,A*7D
$GPRMC,224356.00,A,2934.90385,N,09501.58624,W,0.025,,120623,,,A*6E
$GPVTG,,T,,M,0.025,N,0.046,K,A*26
$GPGGA,224356.00,2934.90385,N,09501.58624,W,1,08,1.16,0.4,M,-24.3,M,,*63
$GPGSA,A,3,18,15,23,29,24,10,05,27,,,,,2.03,1.16,1.67*05
$GPGSV,4,1,13,05,09,066,27,10,25,276,32,13,22,041,,15,52,046,39*7F
$GPGSV,4,2,13,16,01,290,,18,64,353,46,23,51,308,47,24,27,128,40*7D
$GPGSV,4,3,13,27,08,322,40,29,39,182,46,32,06,214,40,46,39,234,46*75
$GPGSV,4,4,13,48,43,229,46*4B
$GPGLL,2934.90385,N,09501.58624,W,224356.00,A,A*74
$GPRMC,224357.00,A,2934.90381,N,09501.58626,W,0.013,,120623,,,A*6C
$GPVTG,,T,,M,0.013,N,0.023,K,A*20
$GPGGA,224357.00,2934.90381,N,09501.58626,W,1,08,1.16,0.3,M,-24.3,M,,*63
$GPGSA,A,3,18,15,23,29,24,10,05,27,,,,,2.03,1.16,1.67*05
$GPGSV,4,1,13,05,09,066,27,10,25,276,32,13,22,041,,15,52,046,38*7E
$GPGSV,4,2,13,16,01,290,,18,64,353,46,23,51,308,47,24,27,128,40*7D
$GPGSV,4,3,13,27,08,322,38,29,39,182,46,32,06,214,40,46,39,234,45*79
$GPGSV,4,4,13,48,43,229,46*4B
$GPGLL,2934.90381,N,09501.58626,W,224357.00,A,A*73
$GPRMC,224358.00,A,2934.90378,N,09501.58627,W,0.004,,120623,,,A*62
$GPVTG,,T,,M,0.004,N,0.007,K,A*20
$GPGGA,224358.00,2934.90378,N,09501.58627,W,1,08,1.16,0.2,M,-24.3,M,,*6A
$GPGSA,A,3,18,15,23,29,24,10,05,27,,,,,2.03,1.16,1.67*05
$GPGSV,4,1,13,05,09,066,25,10,25,276,32,13,22,041,,15,52,046,38*7C
$GPGSV,4,2,13,16,01,290,,18,64,353,47,23,51,308,48,24,27,128,40*73
$GPGSV,4,3,13,27,08,322,39,29,39,182,46,32,06,214,40,46,39,234,45*78
$GPGSV,4,4,13,48,43,229,46*4B
$GPGLL,2934.90378,N,09501.58627,W,224358.00,A,A*7B
$GPRMC,224359.00,A,2934.90371,N,09501.58630,W,0.151,,120623,,,A*6D
$GPVTG,,T,,M,0.151,N,0.279,K,A*2A
$GPGGA,224359.00,2934.90371,N,09501.58630,W,1,08,0.95,0.1,M,-24.3,M,,*6D
$GPGSA,A,3,18,15,23,29,24,10,05,27,,,,,1.64,0.95,1.33*0C
$GPGSV,4,1,13,05,09,066,24,10,25,276,32,13,22,041,,15,52,046,38*7D
$GPGSV,4,2,13,16,01,290,,18,64,353,46,23,51,308,47,24,27,128,40*7D
$GPGSV,4,3,13,27,08,322,35,29,39,182,45,32,06,214,39,46,39,234,45*79
$GPGSV,4,4,13,48,43,229,45*48
$GPGLL,2934.90371,N,09501.58630,W,224359.00,A,A*75
$GPRMC,224400.00,A,2934.90348,N,09501.58631,W,0.976,175.51,120623,,,A*79
$GPVTG,175.51,T,,M,0.976,N,1.807,K,A*3C
$GPGGA,224400.00,2934.90348,N,09501.58631,W,1,07,1.16,-0.2,M,-24.3,M,,*46
$GPGSA,A,3,18,15,23,29,24,10,27,,,,,,2.03,1.16,1.67*00
$GPGSV,4,1,13,05,09,066,,10,25,276,38,13,22,041,,15,52,046,36*7F
$GPGSV,4,2,13,16,01,290,,18,64,353,47,23,51,309,46,24,27,128,41*7D
$GPGSV,4,3,13,27,08,322,39,29,39,182,46,32,06,214,42,46,39,234,46*79
$GPGSV,4,4,13,48,43,229,45*48
$GPGLL,2934.90348,N,09501.58631,W,224400.00,A,A*75
$GPRMC,224401.00,A,2934.90296,N,09501.58615,W,2.328,169.71,120623,,,A*70
$GPVTG,169.71,T,,M,2.328,N,4.311,K,A*39
$GPGGA,224401.00,2934.90296,N,09501.58615,W,1,07,1.16,-1.2,M,-24.3,M,,*42
$GPGSA,A,3,18,15,23,29,24,10,27,,,,,,2.03,1.16,1.67*00
$GPGSV,4,1,13,05,09,066,23,10,25,276,42,13,22,041,,15,52,046,40*72
$GPGSV,4,2,13,16,01,290,,18,64,353,47,23,51,309,47,24,27,128,41*7C
$GPGSV,4,3,13,27,08,322,35,29,38,182,46,32,06,214,37,46,39,234,44*74
$GPGSV,4,4,13,48,43,229,44*49
$GPGLL,2934.90296,N,09501.58615,W,224401.00,A,A*70
$GPRMC,224402.00,A,2934.90162,N,09501.58600,W,5.599,173.16,120623,,,A*7E
$GPVTG,173.16,T,,M,5.599,N,10.370,K,A*0A
$GPGGA,224402.00,2934.90162,N,09501.58600,W,1,07,1.16,-1.3,M,-24.3,M,,*4C
$GPGSA,A,3,18,15,23,29,24,10,27,,,,,,2.03,1.16,1.67*00
$GPGSV,4,1,13,05,09,066,23,10,25,276,42,13,22,041,,15,52,046,40*72
$GPGSV,4,2,13,16,01,290,,18,64,353,47,23,51,309,47,24,27,128,38*72
$GPGSV,4,3,13,27,08,322,34,29,38,182,46,32,06,214,40,46,39,234,45*74
$GPGSV,4,4,13,48,43,229,45*48
$GPGLL,2934.90162,N,09501.58600,W,224402.00,A,A*7F
$GPRMC,224403.00,A,2934.89961,N,09501.58575,W,7.699,173.45,120623,,,A*7A
$GPVTG,173.45,T,,M,7.699,N,14.258,K,A*02
$GPGGA,224403.00,2934.89961,N,09501.58575,W,1,08,1.16,-1.4,M,-24.3,M,,*47
$GPGSA,A,3,18,15,23,29,24,10,05,27,,,,,2.03,1.16,1.67*05
$GPGSV,4,1,13,05,09,066,23,10,25,276,40,13,22,041,,15,52,046,38*7F
$GPGSV,4,2,13,16,01,290,,18,64,353,47,23,51,309,48,24,27,128,40*72
$GPGSV,4,3,13,27,08,322,38,29,38,182,46,32,06,214,29,46,39,234,46*74
$GPGSV,4,4,13,48,43,229,45*48
$GPGLL,2934.89961,N,09501.58575,W,224403.00,A,A*7C
$GPRMC,224404.00,A,2934.89718,N,09501.58548,W,9.122,173.21,120623,,,A*78
$GPVTG,173.21,T,,M,9.122,N,16.894,K,A*01
$GPGGA,224404.00,2934.89718,N,09501.58548,W,1,08,0.95,-1.4,M,-24.3,M,,*44
$GPGSA,A,3,18,15,23,29,24,10,05,27,,,,,1.64,0.95,1.33*0C
$GPGSV,4,1,13,05,09,066,22,10,25,276,41,13,22,041,,15,52,046,38*7F
$GPGSV,4,2,13,16,01,290,,18,64,353,47,23,51,309,47,24,27,128,40*7D
$GPGSV,4,3,13,27,09,322,30,29,38,182,46,32,06,214,36,46,39,234,45*70
$GPGSV,4,4,13,48,43,229,44*49
$GPGLL,2934.89718,N,09501.58548,W,224404.00,A,A*75
$GPRMC,224405.00,A,2934.89460,N,09501.58528,W,9.263,175.84,120623,,,A*7C
$GPVTG,175.84,T,,M,9.263,N,17.156,K,A*08
$GPGGA,224405.00,2934.89460,N,09501.58528,W,1,08,1.16,-1.5,M,-24.3,M,,*44
$GPGSA,A,3,18,15,23,29,24,10,05,27,,,,,2.03,1.16,1.67*05
$GPGSV,4,1,13,05,09,066,25,10,25,276,39,13,22,041,,15,52,046,37*78
$GPGSV,4,2,13,16,01,290,,18,64,353,47,23,51,309,47,24,27,128,40*7D
$GPGSV,4,3,13,27,09,322,29,29,38,182,46,32,06,214,42,46,39,234,44*7A
$GPGSV,4,4,13,48,43,229,44*49
$GPGLL,2934.89460,N,09501.58528,W,224405.00,A,A*7E
$GPRMC,224406.00,A,2934.89223,N,09501.58571,W,8.358,191.45,120623,,,A*7D
$GPVTG,191.45,T,,M,8.358,N,15.480,K,A*0B
$GPGGA,224406.00,2934.89223,N,09501.58571,W,1,09,0.94,-1.6,M,-24.3,M,,*43
$GPGSA,A,3,18,15,23,29,24,13,10,05,27,,,,1.78,0.94,1.51*06
$GPGSV,4,1,13,05,09,066,25,10,25,276,41,13,22,041,35,15,52,046,46*77
$GPGSV,4,2,13,16,01,290,,18,64,353,48,23,51,309,46,24,27,128,39*7D
$GPGSV,4,3,13,27,09,322,30,29,38,182,44,32,06,214,31,46,39,234,43*73
$GPGSV,4,4,13,48,43,229,44*49
$GPGLL,2934.89223,N,09501.58571,W,224406.00,A,A*70
$GPRMC,224407.00,A,2934.89030,N,09501.58710,W,7.942,216.27,120623,,,A*7F
$GPVTG,216.27,T,,M,7.942,N,14.709,K,A*0E
$GPGGA,224407.00,2934.89030,N,09501.58710,W,1,09,0.88,-1.4,M,-24.3,M,,*48
$GPGSA,A,3,18,15,23,29,24,13,10,05,27,,,,1.59,0.88,1.33*0C
$GPGSV,4,1,13,05,09,066,25,10,25,276,44,13,22,041,39,15,52,046,47*7F
$GPGSV,4,2,13,16,01,290,,18,64,353,48,23,51,309,46,24,27,128,42*71
$GPGSV,4,3,13,27,09,322,31,29,38,182,44,32,06,214,41,46,39,234,44*72
$GPGSV,4,4,13,48,43,229,44*49
$GPGLL,2934.89030,N,09501.58710,W,224407.00,A,A*74
$GPRMC,224408.00,A,2934.88901,N,09501.58905,W,7.355,236.29,120623,,,A*70
$GPVTG,236.29,T,,M,7.355,N,13.621,K,A*02
$GPGGA,224408.00,2934.88901,N,09501.58905,W,1,09,0.94,-1.3,M,-24.3,M,,*4D
$GPGSA,A,3,18,15,23,29,24,13,10,05,27,,,,1.78,0.94,1.51*06
$GPGSV,4,1,13,05,09,066,24,10,25,276,44,13,22,041,38,15,52,046,47*7F
$GPGSV,4,2,13,16,01,290,,18,64,353,47,23,51,309,46,24,27,128,41*7D
$GPGSV,4,3,13,27,09,322,41,29,38,182,41,32,06,214,32,46,39,234,45*75
$GPGSV,4,4,13,48,43,229,46*4B
$GPGLL,2934.88901,N,09501.58905,W,224408.00,A,A*7B
$GPRMC,224409.00,A,2934.88841,N,09501.59130,W,7.447,256.12,120623,,,A*71
$GPVTG,256.12,T,,M,7.447,N,13.791,K,A*02
$GPGGA,224409.00,2934.88841,N,09501.59130,W,1,09,0.94,-1.4,M,-24.3,M,,*41
$GPGSA,A,3,18,15,23,29,24,13,10,05,27,,,,1.78,0.94,1.51*06
$GPGSV,4,1,13,05,09,066,25,10,25,276,42,13,22,041,35,15,52,046,48*7A
$GPGSV,4,2,13,16,01,290,,18,64,353,45,23,51,309,45,24,27,128,32*78
$GPGSV,4,3,13,27,09,322,39,29,38,182,44,32,07,214,32,46,39,234,44*7F
$GPGSV,4,4,13,48,43,229,42*4F
$GPGLL,2934.88841,N,09501.59130,W,224409.00,A,A*70
$GPRMC,224410.00,A,2934.88786,N,09501.59384,W,8.311,256.99,120623,,,A*78
$GPVTG,256.99,T,,M,8.311,N,15.391,K,A*08
$GPGGA,224410.00,2934.88786,N,09501.59384,W,1,09,0.88,-1.1,M,-24.3,M,,*48
$GPGSA,A,3,18,15,23,29,24,13,10,05,27,,,,1.59,0.88,1.33*0C
$GPGSV,4,1,13,05,09,066,26,10,25,276,42,13,22,041,36,15,52,046,48*7A
$GPGSV,4,2,13,16,01,290,,18,64,353,47,23,51,309,47,24,27,128,32*78
$GPGSV,4,3,13,27,09,322,43,29,38,182,45,32,07,214,32,46,39,234,45*72
$GPGSV,4,4,13,48,43,229,41*4C
$GPGLL,2934.88786,N,09501.59384,W,224410.00,A,A*71
$GPRMC,224411.00,A,2934.88664,N,09501.59645,W,9.399,238.75,120623,,,A*77
$GPVTG,238.75,T,,M,9.399,N,17.406,K,A*08
$GPGGA,224411.00,2934.88664,N,09501.59645,W,1,09,0.88,-0.8,M,-24.3,M,,*44
$GPGSA,A,3,18,15,23,29,24,13,10,05,27,,,,1.59,0.88,1.33*0C
$GPGSV,4,1,13,05,09,066,29,10,25,276,42,13,22,041,38,15,52,046,48*7B
$GPGSV,4,2,13,16,01,290,,18,64,353,47,23,51,309,46,24,27,128,39*72
$GPGSV,4,3,13,27,09,322,40,29,38,182,43,32,07,214,35,46,39,234,45*70
$GPGSV,4,4,13,48,43,229,45*48
$GPGLL,2934.88664,N,09501.59645,W,224411.00,A,A*75
$GPRMC,224412.00,A,2934.88452,N,09501.59861,W,10.255,216.84,120623,,,A*40
$GPVTG,216.84,T,,M,10.255,N,18.992,K,A*3C
$GPGGA,224412.00,2934.88452,N,09501.59861,W,1,09,0.88,-0.4,M,-24.3,M,,*44
$GPGSA,A,3,18,15,23,29,24,13,10,05,27,,,,1.59,0.88,1.33*0C
$GPGSV,4,1,13,05,09,066,39,10,25,276,42,13,22,041,37,15,52,046,47*7A
$GPGSV,4,2,13,16,01,290,,18,64,353,49,23,51,309,47,24,27,128,42*71
$GPGSV,4,3,13,27,09,322,35,29,38,182,44,32,07,214,33,46,39,234,45*73
$GPGSV,4,4,13,48,43,229,45*48
$GPGLL,2934.88452,N,09501.59861,W,224412.00,A,A*79
$GPRMC,224413.00,A,2934.88148,N,09501.59991,W,12.112,195.10,120623,,,A*46
$GPVTG,195.10,T,,M,12.112,N,22.431,K,A*36
$GPGGA,224413.00,2934.88148,N,09501.59991,W,1,09,0.88,-0.3,M,-24.3,M,,*42
$GPGSA,A,3,18,15,23,29,24,13,10,05,27,,,,1.59,0.88,1.33*0C
$GPGSV,4,1,13,05,09,066,32,10,25,276,42,13,22,041,41,15,52,046,46*71
$GPGSV,4,2,13,16,01,290,,18,64,353,47,23,51,309,45,24,27,128,39*71
$GPGSV,4,3,13,27,09,322,28,29,38,182,46,32,07,214,28,46,39,234,45*77
$GPGSV,4,4,13,48,43,229,45*48
$GPGLL,2934.88148,N,09501.59991,W,224413.00,A,A*78
$GPRMC,224414.00,A,2934.87754,N,09501.60055,W,14.965,185.52,120623,,,A*47
$GPVTG,185.52,T,,M,14.965,N,27.716,K,A*3C
$GPGGA,224414.00,2934.87754,N,09501.60055,W,1,09,0.94,-0.3,M,-24.3,M,,*47
$GPGSA,A,3,18,15,23,29,24,13,10,05,27,,,,1.78,0.94,1.51*06
$GPGSV,4,1,13,05,09,066,31,10,25,276,43,13,22,041,39,15,52,046,43*79
$GPGSV,4,2,13,16,01,290,,18,64,353,47,23,51,309,47,24,27,128,39*73
$GPGSV,4,3,13,27,09,322,28,29,38,182,46,32,07,214,36,46,39,234,44*79
$GPGSV,4,4,13,48,43,229,43*4E
$GPGLL,2934.87754,N,09501.60055,W,224414.00,A,A*70
$GPRMC,224415.00,A,2934.87294,N,09501.60125,W,17.092,187.69,120623,,,A*41
$GPVTG,187.69,T,,M,17.092,N,31.654,K,A*34
$GPGGA,224415.00,2934.87294,N,09501.60125,W,1,09,0.94,-0.2,M,-24.3,M,,*48
$GPGSA,A,3,18,15,23,29,24,13,10,05,27,,,,1.78,0.94,1.51*06
$GPGSV,4,1,13,05,09,066,31,10,25,276,42,13,22,041,39,15,52,046,44*7F
$GPGSV,4,2,13,16,01,290,,18,64,353,47,23,51,309,46,24,27,128,40*7C
$GPGSV,4,3,13,27,09,322,29,29,38,182,46,32,07,214,41,46,39,234,42*7E
$GPGSV,4,4,13,48,43,229,42*4F
$GPGLL,2934.87294,N,09501.60125,W,224415.00,A,A*7E
$GPRMC,224416.00,A,2934.86798,N,09501.60261,W,18.575,194.73,120623,,,A*43
$GPVTG,194.73,T,,M,18.575,N,34.401,K,A*39
$GPGGA,224416.00,2934.86798,N,09501.60261,W,1,08,0.98,-0.1,M,-24.3,M,,*4E
$GPGSA,A,3,18,15,23,29,24,13,10,05,,,,,1.92,0.98,1.65*0C
$GPGSV,4,1,13,05,09,066,35,10,25,276,43,13,22,041,42,15,52,046,47*75
$GPGSV,4,2,13,16,01,290,,18,64,353,48,23,51,309,45,24,27,128,38*7F
$GPGSV,4,3,13,27,09,322,,29,38,182,45,32,07,214,38,46,39,234,45*7F
$GPGSV,4,4,13,48,43,229,44*49
$GPGLL,2934.86798,N,09501.60261,W,224416.00,A,A*76
$GPRMC,224417.00,A,2934.86292,N,09501.60488,W,19.596,203.13,120623,,,A*4B
$GPVTG,203.13,T,,M,19.596,N,36.292,K,A*30
$GPGGA,224417.00,2934.86292,N,09501.60488,W,1,08,0.98,0.0,M,-24.3,M,,*6D
$GPGSA,A,3,18,15,23,29,24,13,10,05,,,,,1.92,0.98,1.65*0C
$GPGSV,4,1,13,05,09,066,40,10,25,276,43,13,22,041,40,15,52,046,47*75
$GPGSV,4,2,13,16,01,290,,18,64,353,44,23,51,309,44,24,27,128,42*7F
$GPGSV,4,3,13,27,09,322,26,29,38,182,46,32,07,214,32,46,39,234,43*74
$GPGSV,4,4,13,48,43,229,43*4E
$GPGLL,2934.86292,N,09501.60488,W,224417.00,A,A*79
$GPRMC,224418.00,A,2934.85799,N,09501.60820,W,20.599,212.44,120623,,,A*40
$GPVTG,212.44,T,,M,20.599,N,38.149,K,A*3C
$GPGGA,224418.00,2934.85799,N,09501.60820,W,1,08,0.98,0.3,M,-24.3,M,,*62
$GPGSA,A,3,18,15,23,29,24,13,10,05,,,,,1.92,0.98,1.65*0C
$GPGSV,4,1,13,05,09,066,38,10,25,276,44,13,22,041,37,15,52,046,48*72
$GPGSV,4,2,13,16,01,290,,18,64,353,48,23,51,309,45,24,27,128,41*71
$GPGSV,4,3,13,27,09,322,24,29,38,182,45,32,07,214,33,46,39,234,44*73
$GPGSV,4,4,13,48,43,229,44*49
$GPGLL,2934.85799,N,09501.60820,W,224418.00,A,A*75
$GPRMC,224419.00,A,2934.85361,N,09501.61265,W,21.048,224.80,120623,,,A*4D
$GPVTG,224.80,T,,M,21.048,N,38.980,K,A*34
$GPGGA,224419.00,2934.85361,N,09501.61265,W,1,08,0.98,0.5,M,-24.3,M,,*6C
$GPGSA,A,3,18,15,23,29,24,13,10,05,,,,,1.92,0.98,1.65*0C
$GPGSV,4,1,13,05,09,066,33,10,25,276,42,13,22,041,37,15,52,046,47*70
$GPGSV,4,2,13,16,01,290,,18,64,353,49,23,51,309,46,24,27,128,42*70
$GPGSV,4,3,13,27,09,322,,29,38,182,43,32,07,214,32,46,39,234,45*73
$GPGSV,4,4,13,48,43,229,45*48
$GPGLL,2934.85361,N,09501.61265,W,224419.00,A,A*7D
$GPRMC,224420.00,A,2934.84987,N,09501.61810,W,21.494,235.05,120623,,,A*44
$GPVTG,235.05,T,,M,21.494,N,39.806,K,A*32
$GPGGA,224420.00,2934.84987,N,09501.61810,W,1,08,0.98,0.4,M,-24.3,M,,*6C
$GPGSA,A,3,18,15,23,29,24,13,10,05,,,,,1.92,0.98,1.65*0C
$GPGSV,4,1,13,05,09,066,30,10,25,276,43,13,22,041,37,15,52,046,47*72
$GPGSV,4,2,13,16,01,290,35,18,64,353,48,23,51,309,46,24,27,128,41*74
$GPGSV,4,3,13,27,09,322,,29,38,182,41,32,07,214,36,46,39,234,45*75
$GPGSV,4,4,13,48,43,229,45*48
$GPGLL,2934.84987,N,09501.61810,W,224420.00,A,A*7C
$GPRMC,224421.00,A,2934.84706,N,09501.62434,W,21.846,246.19,120623,,,A*41
$GPVTG,246.19,T,,M,21.846,N,40.459,K,A*30
$GPGGA,224421.00,2934.84706,N,09501.62434,W,1,08,0.98,0.2,M,-24.3,M,,*65
$GPGSA,A,3,18,15,23,29,24,13,10,05,,,,,1.92,0.98,1.65*0C
$GPGSV,4,1,13,05,09,066,29,10,25,276,42,13,22,041,38,15,52,046,48*7B
$GPGSV,4,2,13,16,01,290,33,18,64,353,46,23,51,309,45,24,27,128,37*7E
$GPGSV,4,3,13,27,09,322,40,29,38,182,44,32,07,214,39,46,39,234,45*7B
$GPGSV,4,4,13,48,43,229,45*48
$GPGLL,2934.84706,N,09501.62434,W,224421.00,A,A*73
$GPRMC,224422.00,A,2934.84525,N,09501.63113,W,22.221,257.05,120623,,,A*45
$GPVTG,257.05,T,,M,22.221,N,41.153,K,A*3B
$GPGGA,224422.00,2934.84525,N,09501.63113,W,1,09,0.88,0.2,M,-24.3,M,,*64
$GPGSA,A,3,18,15,23,29,24,13,10,05,27,,,,1.59,0.88,1.33*0C
$GPGSV,4,1,13,05,09,066,36,10,25,276,41,13,22,041,31,15,52,046,49*7E
$GPGSV,4,2,13,16,01,290,,18,64,353,46,23,51,309,46,24,27,128,34*7E
$GPGSV,4,3,13,27,09,322,42,29,38,182,44,32,07,214,34,46,39,234,45*74
$GPGSV,4,4,13,48,43,229,42*4F
$GPGLL,2934.84525,N,09501.63113,W,224422.00,A,A*72
$GPRMC,224423.00,A,2934.84448,N,09501.63835,W,22.818,266.31,120623,,,A*46
$GPVTG,266.31,T,,M,22.818,N,42.259,K,A*34
$GPGGA,224423.00,2934.84448,N,09501.63835,W,1,09,0.88,0.3,M,-24.3,M,,*63
$GPGSA,A,3,18,15,23,29,24,13,10,05,27,,,,1.59,0.88,1.33*0C
$GPGSV,4,1,13,05,09,066,36,10,25,276,44,13,22,041,34,15,52,046,48*7F
$GPGSV,4,2,13,16,01,290,,18,64,353,47,23,51,309,45,24,27,128,44*7B
$GPGSV,4,3,13,27,09,322,41,29,38,182,45,32,07,214,37,46,39,234,42*72
$GPGSV,4,4,13,48,43,229,41*4C
$GPGLL,2934.84448,N,09501.63835,W,224423.00,A,A*74
$GPRMC,224424.00,A,2934.84424,N,09501.64579,W,23.545,269.34,120623,,,A*47
$GPVTG,269.34,T,,M,23.545,N,43.605,K,A*36
$GPGGA,224424.00,2934.84424,N,09501.64579,W,1,09,0.88,0.3,M,-24.3,M,,*6C
$GPGSA,A,3,18,15,23,29,24,13,10,05,27,,,,1.59,0.88,1.33*0C
$GPGSV,4,1,13,05,09,066,32,10,25,276,44,13,22,041,35,15,52,046,49*7B
$GPGSV,4,2,13,16,01,290,,18,64,353,47,23,51,309,46,24,27,128,41*7D
$GPGSV,4,3,13,27,09,322,39,29,38,182,44,32,07,214,35,46,39,234,43*7F
$GPGSV,4,4,13,48,43,229,40*4D
$GPGLL,2934.84424,N,09501.64579,W,224424.00,A,A*7B
$GPRMC,224425.00,A,2934.84410,N,09501.65339,W,23.727,269.59,120623,,,A*4F
$GPVTG,269.59,T,,M,23.727,N,43.941,K,A*34
$GPGGA,224425.00,2934.84410,N,09501.65339,W,1,09,0.88,0.6,M,-24.3,M,,*6C
$GPGSA,A,3,18,15,23,29,24,13,10,05,27,,,,1.59,0.88,1.33*0C
$GPGSV,4,1,13,05,09,066,35,10,25,276,44,13,22,041,36,15,52,046,49*7F
$GPGSV,4,2,13,16,01,290,,18,64,353,47,23,51,309,46,24,27,128,41*7D
$GPGSV,4,3,13,27,09,322,37,29,38,182,44,32,07,214,31,46,39,234,44*72
$GPGSV,4,4,13,48,43,229,40*4D
$GPGLL,2934.84410,N,09501.65339,W,224425.00,A,A*7E
$GPRMC,224426.00,A,2934.84399,N,09501.66108,W,24.165,269.43,120623,,,A*45
$GPVTG,269.43,T,,M,24.165,N,44.753,K,A*32
$GPGGA,224426.00,2934.84399,N,09501.66108,W,1,09,0.88,0.6,M,-24.3,M,,*6A
$GPGSA,A,3,18,15,23,29,24,13,10,05,27,,,,1.59,0.88,1.33*0C
$GPGSV,4,1,13,05,09,066,34,10,25,276,44,13,22,041,36,15,52,046,49*7E
$GPGSV,4,2,13,16,01,290,30,18,64,353,47,23,51,309,46,24,27,128,41*7E
$GPGSV,4,3,13,27,09,322,39,29,38,182,44,32,07,214,25,46,39,234,44*79
$GPGSV,4,4,13,48,43,229,40*4D
$GPGLL,2934.84399,N,09501.66108,W,224426.00,A,A*78
$GPRMC,224427.00,A,2934.84385,N,09501.66862,W,23.368,269.26,120623,,,A*47
$GPVTG,269.26,T,,M,23.368,N,43.277,K,A*3D
$GPGGA,224427.00,2934.84385,N,09501.66862,W,1,09,0.88,0.7,M,-24.3,M,,*62
$GPGSA,A,3,18,15,23,29,24,13,10,05,27,,,,1.59,0.88,1.33*0C
$GPGSV,4,1,13,05,09,066,32,10,25,276,44,13,22,041,36,15,52,046,49*78
$GPGSV,4,2,13,16,01,290,,18,64,353,46,23,51,309,46,24,27,128,41*7C
$GPGSV,4,3,13,27,09,322,40,29,38,182,44,32,07,214,38,46,39,234,44*7B
$GPGSV,4,4,13,48,43,229,40*4D
$GPGLL,2934.84385,N,09501.66862,W,224427.00,A,A*71
$GPRMC,224428.00,A,2934.84373,N,09501.67533,W,19.963,269.42,120623,,,A*43
$GPVTG,269.42,T,,M,19.963,N,36.972,K,A*3B
$GPGGA,224428.00,2934.84373,N,09501.67533,W,1,09,0.88,0.8,M,-24.3,M,,*63
$GPGSA,A,3,18,15,23,29,24,13,10,05,27,,,,1.59,0.88,1.33*0C
$GPGSV,4,1,13,05,09,066,32,10,25,276,44,13,22,041,36,15,52,046,49*78
$GPGSV,4,2,13,16,01,290,,18,64,353,47,23,51,309,47,24,27,128,41*7C
$GPGSV,4,3,13,27,09,322,41,29,38,182,44,32,07,214,34,46,39,234,44*76
$GPGSV,4,4,13,48,43,229,40*4D
$GPGLL,2934.84373,N,09501.67533,W,224428.00,A,A*7F
$GPRMC,224429.00,A,2934.84363,N,09501.68096,W,16.571,269.21,120623,,,A*43
$GPVTG,269.21,T,,M,16.571,N,30.689,K,A*33
$GPGGA,224429.00,2934.84363,N,09501.68096,W,1,09,0.88,0.8,M,-24.3,M,,*66
$GPGSA,A,3,18,15,23,29,24,13,10,05,27,,,,1.59,0.88,1.33*0C
$GPGSV,4,1,13,05,09,066,27,10,25,276,44,13,22,041,37,15,52,046,49*7D
$GPGSV,4,2,13,16,01,290,,18,64,353,47,23,51,309,47,24,27,128,41*7C
$GPGSV,4,3,13,27,09,322,41,29,38,182,44,32,07,214,33,46,39,234,45*70
$GPGSV,4,4,13,48,43,229,40*4D
$GPGLL,2934.84363,N,09501.68096,W,224429.00,A,A*7A
$GPRMC,224430.00,A,2934.84350,N,09501.68534,W,12.377,268.40,120623,,,A*44
$GPVTG,268.40,T,,M,12.377,N,22.922,K,A*3C
$GPGGA,224430.00,2934.84350,N,09501.68534,W,1,09,0.88,0.9,M,-24.3,M,,*62
$GPGSA,A,3,18,15,23,29,24,13,10,05,27,,,,1.59,0.88,1.33*0C
$GPGSV,4,1,13,05,09,066,32,10,25,276,45,13,22,041,36,15,52,046,49*79
$GPGSV,4,2,13,16,01,290,,18,64,353,47,23,51,309,47,24,27,128,41*7C
$GPGSV,4,3,13,27,09,322,36,29,38,182,44,32,07,214,34,46,39,234,43*71
$GPGSV,4,4,13,48,43,229,40*4D
$GPGLL,2934.84350,N,09501.68534,W,224430.00,A,A*7F
$GPRMC,224431.00,A,2934.84338,N,09501.68840,W,8.239,267.79,120623,,,A*70
$GPVTG,267.79,T,,M,8.239,N,15.258,K,A*0B
$GPGGA,224431.00,2934.84338,N,09501.68840,W,1,09,0.88,0.8,M,-24.3,M,,*62
$GPGSA,A,3,18,15,23,29,24,13,10,05,27,,,,1.59,0.88,1.33*0C
$GPGSV,4,1,13,05,09,066,33,10,25,276,45,13,22,041,36,15,52,046,48*79
$GPGSV,4,2,13,16,01,290,,18,64,353,47,23,51,309,45,24,27,128,40*7F
$GPGSV,4,3,13,27,09,322,37,29,38,182,44,32,07,214,36,46,39,234,41*70
$GPGSV,4,4,13,48,43,229,40*4D
$GPGLL,2934.84338,N,09501.68840,W,224431.00,A,A*7E
$GPRMC,224432.00,A,2934.84329,N,09501.69002,W,3.661,267.43,120623,,,A*77
$GPVTG,267.43,T,,M,3.661,N,6.779,K,A*34
$GPGGA,224432.00,2934.84329,N,09501.69002,W,1,09,0.88,0.8,M,-24.3,M,,*6E
$GPGSA,A,3,18,15,23,29,24,13,10,05,27,,,,1.59,0.88,1.33*0C
$GPGSV,4,1,13,05,09,066,34,10,25,276,45,13,22,041,33,15,52,046,47*74
$GPGSV,4,2,13,16,01,290,,18,64,353,47,23,51,309,44,24,27,128,41*7F
$GPGSV,4,3,13,27,09,322,38,29,38,182,44,32,07,214,27,46,39,234,42*7C
$GPGSV,4,4,13,48,43,229,41*4C
$GPGLL,2934.84329,N,09501.69002,W,224432.00,A,A*72
$GPRMC,224433.00,A,2934.84322,N,09501.69043,W,0.045,,120623,,,A*61
$GPVTG,,T,,M,0.045,N,0.083,K,A*29
$GPGGA,224433.00,2934.84322,N,09501.69043,W,1,09,0.88,1.0,M,-24.3,M,,*68
$GPGSA,A,3,18,15,23,29,24,13,10,05,27,,,,1.59,0.88,1.33*0C
$GPGSV,4,1,13,05,09,066,34,10,25,276,45,13,22,041,36,15,52,046,47*71
$GPGSV,4,2,13,16,01,290,,18,64,353,46,23,51,309,43,24,27,128,41*79
$GPGSV,4,3,13,27,09,322,40,29,38,182,44,32,07,214,29,46,39,234,42*7D
$GPGSV,4,4,13,48,43,229,40*4D
$GPGLL,2934.84322,N,09501.69043,W,224433.00,A,A*7D
$GPRMC,224434.00,A,2934.84318,N,09501.69048,W,0.010,,120623,,,A*64
$GPVTG,,T,,M,0.010,N,0.018,K,A*2B
$GPGGA,224434.00,2934.84318,N,09501.69048,W,1,09,0.88,1.0,M,-24.3,M,,*6D
$GPGSA,A,3,18,15,23,29,24,13,10,05,27,,,,1.59,0.88,1.33*0C
$GPGSV,4,1,13,05,09,066,33,10,25,276,45,13,22,041,37,15,52,046,47*77
$GPGSV,4,2,13,16,01,290,27,18,64,353,46,23,51,309,44,24,27,128,41*7B
$GPGSV,4,3,13,27,09,322,40,29,38,182,45,32,07,214,29,46,39,234,42*7C
$GPGSV,4,4,13,48,43,229,40*4D
$GPGLL,2934.84318,N,09501.69048,W,224434.00,A,A*78
$GPRMC,224435.00,A,2934.84315,N,09501.69052,W,0.016,,120623,,,A*65
$GPVTG,,T,,M,0.016,N,0.030,K,A*27
$GPGGA,224435.00,2934.84315,N,09501.69052,W,1,09,0.88,1.1,M,-24.3,M,,*6B
$GPGSA,A,3,18,15,23,29,24,13,10,05,27,,,,1.59,0.88,1.33*0C
$GPGSV,4,1,13,05,09,066,33,10,25,276,45,13,22,041,37,15,52,046,48*78
$GPGSV,4,2,13,16,01,290,27,18,64,353,46,23,51,309,44,24,27,128,42*78
$GPGSV,4,3,13,27,09,322,40,29,38,182,45,32,07,214,30,46,39,234,42*74
$GPGSV,4,4,13,48,43,229,40*4D
$GPGLL,2934.84315,N,09501.69052,W,224435.00,A,A*7F
$GPRMC,224436.00,A,2934.84313,N,09501.69056,W,0.027,,120623,,,A*66
$GPVTG,,T,,M,0.027,N,0.050,K,A*23
$GPGGA,224436.00,2934.84313,N,09501.69056,W,1,09,0.88,1.1,M,-24.3,M,,*6A
$GPGSA,A,3,18,15,23,29,24,13,10,05,27,,,,1.59,0.88,1.33*0C
$GPGSV,4,1,13,05,09,066,33,10,25,276,45,13,22,041,36,15,52,045,48*7A
$GPGSV,4,2,13,16,01,290,27,18,64,353,46,23,51,309,44,24,27,128,42*78
$GPGSV,4,3,13,27,09,322,42,29,38,182,45,32,07,214,31,46,39,234,42*77
$GPGSV,4,4,13,48,43,229,40*4D
$GPGLL,2934.84313,N,09501.69056,W,224436.00,A,A*7E
$GPRMC,224437.00,A,2934.84310,N,09501.69060,W,0.012,,120623,,,A*67
$GPVTG,,T,,M,0.012,N,0.022,K,A*20
$GPGGA,224437.00,2934.84310,N,09501.69060,W,1,09,0.88,1.2,M,-24.3,M,,*6E
$GPGSA,A,3,18,15,23,29,24,13,10,05,27,,,,1.59,0.88,1.33*0C
$GPGSV,4,1,13,05,09,066,32,10,25,276,45,13,22,041,36,15,52,045,48*7B
$GPGSV,4,2,13,16,01,289,27,18,64,353,46,23,51,309,44,24,27,128,42*70
$GPGSV,4,3,13,27,09,322,41,29,38,182,45,32,07,214,31,46,39,234,43*75
$GPGSV,4,4,13,48,43,229,40*4D
$GPGLL,2934.84310,N,09501.69060,W,224437.00,A,A*79
$GPRMC,224438.00,A,2934.84307,N,09501.69063,W,0.021,,120623,,,A*6D
$GPVTG,,T,,M,0.021,N,0.038,K,A*2B
$GPGGA,224438.00,2934.84307,N,09501.69063,W,1,09,0.88,1.2,M,-24.3,M,,*64
$GPGSA,A,3,18,15,23,29,24,13,10,05,27,,,,1.59,0.88,1.33*0C
$GPGSV,4,1,13,05,09,066,33,10,25,276,45,13,22,041,36,15,52,045,48*7A
$GPGSV,4,2,13,16,01,289,28,18,64,353,46,23,51,309,44,24,27,128,42*7F
$GPGSV,4,3,13,27,09,322,42,29,38,182,45,32,07,214,31,46,39,234,43*76
$GPGSV,4,4,13,48,43,229,40*4D
$GPGLL,2934.84307,N,09501.69063,W,224438.00,A,A*73
$GPRMC,224439.00,A,2934.84304,N,09501.69067,W,0.005,,120623,,,A*6D
$GPVTG,,T,,M,0.005,N,0.009,K,A*2F
$GPGGA,224439.00,2934.84304,N,09501.69067,W,1,09,0.88,1.3,M,-24.3,M,,*63
$GPGSA,A,3,18,15,23,29,24,13,10,05,27,,,,1.59,0.88,1.33*0C
$GPGSV,4,1,13,05,09,066,33,10,25,276,45,13,22,041,36,15,52,045,47*75
$GPGSV,4,2,13,16,01,289,28,18,65,354,46,23,51,309,44,24,27,128,42*79
$GPGSV,4,3,13,27,09,322,41,29,38,182,45,32,07,214,30,46,39,234,42*75
$GPGSV,4,4,13,48,43,229,40*4D
$GPGLL,2934.84304,N,09501.69067,W,224439.00,A,A*75
$GPRMC,224440.00,A,2934.84302,N,09501.69071,W,0.006,,120623,,,A*61
$GPVTG,,T,,M,0.006,N,0.011,K,A*25
$GPGGA,224440.00,2934.84302,N,09501.69071,W,1,09,0.88,1.4,M,-24.3,M,,*6B
$GPGSA,A,3,18,15,23,29,24,13,10,05,27,,,,1.59,0.88,1.33*0C
$GPGSV,4,1,13,05,09,066,33,10,25,276,45,13,22,041,36,15,52,045,47*75
$GPGSV,4,2,13,16,01,289,28,18,65,354,46,23,51,309,45,24,27,128,42*78
$GPGSV,4,3,13,27,09,322,41,29,38,182,45,32,07,214,30,46,39,234,43*74
$GPGSV,4,4,13,48,43,229,40*4D
$GPGLL,2934.84302,N,09501.69071,W,224440.00,A,A*7A
$GPRMC,224441.00,A,2934.84300,N,09501.69075,W,0.035,,120623,,,A*66
$GPVTG,,T,,M,0.035,N,0.065,K,A*26
$GPGGA,224441.00,2934.84300,N,09501.69075,W,1,09,0.88,1.5,M,-24.3,M,,*6D
$GPGSA,A,3,18,15,23,29,24,13,10,05,27,,,,1.59,0.88,1.33*0C
$GPGSV,4,1,13,05,09,066,32,10,25,276,45,13,22,041,36,15,52,045,47*74
$GPGSV,4,2,13,16,01,289,28,18,65,354,46,23,51,309,45,24,27,128,42*78
$GPGSV,4,3,13,27,09,322,41,29,38,182,45,32,07,214,30,46,39,234,43*74
$GPGSV,4,4,13,48,43,229,40*4D
$GPGLL,2934.84300,N,09501.69075,W,224441.00,A,A*7D
$GPRMC,224442.00,A,2934.84297,N,09501.69089,W,0.475,267.54,120623,,,A*75
$GPVTG,267.54,T,,M,0.475,N,0.880,K,A*39
$GPGGA,224442.00,2934.84297,N,09501.69089,W,1,09,0.88,1.5,M,-24.3,M,,*62
$GPGSA,A,3,18,15,23,29,24,13,10,05,27,,,,1.59,0.88,1.33*0C
$GPGSV,4,1,13,05,09,066,35,10,25,276,45,13,22,041,37,15,52,045,48*7D
$GPGSV,4,2,13,16,01,289,27,18,65,354,46,23,51,309,44,24,27,128,40*74
$GPGSV,4,3,13,27,09,322,41,29,38,182,45,32,07,214,30,46,39,234,41*76
$GPGSV,4,4,13,48,43,229,40*4D
$GPGLL,2934.84297,N,09501.69089,W,224442.00,A,A*72
$GPRMC,224443.00,A,2934.84296,N,09501.69139,W,2.066,268.15,120623,,,A*71
$GPVTG,268.15,T,,M,2.066,N,3.825,K,A*3B
$GPGGA,224443.00,2934.84296,N,09501.69139,W,1,09,0.88,1.5,M,-24.3,M,,*68
$GPGSA,A,3,18,15,23,29,24,13,10,05,27,,,,1.59,0.88,1.33*0C
$GPGSV,4,1,13,05,09,066,32,10,25,276,45,13,22,041,30,15,52,045,48*7D
$GPGSV,4,2,13,16,01,289,26,18,65,354,46,23,51,309,44,24,27,128,41*74
$GPGSV,4,3,13,27,09,322,44,29,38,182,44,32,07,214,30,46,39,234,41*72
$GPGSV,4,4,13,48,43,229,41*4C
$GPGLL,2934.84296,N,09501.69139,W,224443.00,A,A*78
$GPRMC,224444.00,A,2934.84299,N,09501.69255,W,4.319,272.43,120623,,,A*75
$GPVTG,272.43,T,,M,4.319,N,7.999,K,A*3C
$GPGGA,224444.00,2934.84299,N,09501.69255,W,1,09,0.88,1.4,M,-24.3,M,,*68
$GPGSA,A,3,18,15,23,29,24,13,10,05,27,,,,1.59,0.88,1.33*0C
$GPGSV,4,1,13,05,09,066,31,10,25,276,44,13,22,041,32,15,52,045,47*72
$GPGSV,4,2,13,16,01,289,,18,65,354,46,23,51,309,46,24,28,127,38*7C
$GPGSV,4,3,13,27,09,322,43,29,38,182,43,32,07,214,35,46,39,234,42*74
$GPGSV,4,4,13,48,43,229,40*4D
$GPGLL,2934.84299,N,09501.69255,W,224444.00,A,A*79
$GPRMC,224445.00,A,2934.84349,N,09501.69431,W,6.517,289.67,120623,,,A*74
$GPVTG,289.67,T,,M,6.517,N,12.069,K,A*06
$GPGGA,224445.00,2934.84349,N,09501.69431,W,1,09,0.88,1.3,M,-24.3,M,,*66
$GPGSA,A,3,18,15,23,29,24,13,10,05,27,,,,1.59,0.88,1.33*0C
$GPGSV,4,1,13,05,09,066,35,10,25,276,46,13,22,041,30,15,52,045,45*74
$GPGSV,4,2,13,16,01,289,,18,65,354,47,23,51,309,45,24,28,127,38*7E
$GPGSV,4,3,13,27,09,322,42,29,38,182,44,32,07,214,41,46,39,234,40*73
$GPGSV,4,4,13,48,43,229,44*49
$GPGLL,2934.84349,N,09501.69431,W,224445.00,A,A*70
$GPRMC,224446.00,A,2934.84495,N,09501.69641,W,9.433,310.72,120623,,,A*79
$GPVTG,310.72,T,,M,9.433,N,17.470,K,A*02
$GPGGA,224446.00,2934.84495,N,09501.69641,W,1,09,0.88,1.3,M,-24.3,M,,*66
$GPGSA,A,3,18,15,23,29,24,13,10,05,27,,,,1.59,0.88,1.33*0C
$GPGSV,4,1,13,05,09,066,28,10,25,276,44,13,22,041,41,15,52,045,46*7F
$GPGSV,4,2,13,16,01,289,,18,65,354,45,23,51,309,46,24,28,127,37*70
$GPGSV,4,3,13,27,09,322,38,29,38,182,34,32,07,214,39,46,39,234,44*72
$GPGSV,4,4,13,48,43,229,44*49
$GPGLL,2934.84495,N,09501.69641,W,224446.00,A,A*70
$GPRMC,224447.00,A,2934.84771,N,09501.69832,W,12.574,333.02,120623,,,A*45
$GPVTG,333.02,T,,M,12.574,N,23.287,K,A*35
$GPGGA,224447.00,2934.84771,N,09501.69832,W,1,09,0.88,1.4,M,-24.3,M,,*63
$GPGSA,A,3,18,15,23,29,24,13,10,05,27,,,,1.59,0.88,1.33*0C
$GPGSV,4,1,13,05,09,066,41,10,25,276,42,13,22,041,43,15,52,045,46*74
$GPGSV,4,2,13,16,01,289,,18,65,354,46,23,51,309,45,24,28,127,38*7F
$GPGSV,4,3,13,27,09,322,41,29,38,182,46,32,07,214,33,46,39,234,43*74
$GPGSV,4,4,13,48,43,229,43*4E
$GPGLL,2934.84771,N,09501.69832,W,224447.00,A,A*72
$GPRMC,224448.00,A,2934.85177,N,09501.69988,W,16.683,344.31,120623,,,A*44
$GPVTG,344.31,T,,M,16.683,N,30.897,K,A*33
$GPGGA,224448.00,2934.85177,N,09501.69988,W,1,09,0.88,1.4,M,-24.3,M,,*6D
$GPGSA,A,3,18,15,23,29,24,13,10,05,27,,,,1.59,0.88,1.33*0C
$GPGSV,4,1,13,05,09,066,43,10,25,276,41,13,22,041,43,15,52,045,46*75
$GPGSV,4,2,13,16,01,289,31,18,65,354,44,23,51,309,42,24,28,127,31*71
$GPGSV,4,3,13,27,09,322,38,29,38,182,43,32,07,214,32,46,39,234,41*7C
$GPGSV,4,4,13,48,43,229,40*4D
$GPGLL,2934.85177,N,09501.69988,W,224448.00,A,A*7C
$GPRMC,224449.00,A,2934.85711,N,09501.70126,W,20.930,348.60,120623,,,A*4D
$GPVTG,348.60,T,,M,20.930,N,38.762,K,A*34
$GPGGA,224449.00,2934.85711,N,09501.70126,W,1,09,0.88,1.5,M,-24.3,M,,*6F
$GPGSA,A,3,18,15,23,29,24,13,10,05,27,,,,1.59,0.88,1.33*0C
$GPGSV,4,1,13,05,09,066,45,10,25,276,41,13,22,041,43,15,52,045,46*73
$GPGSV,4,2,13,16,01,289,31,18,65,354,44,23,51,309,42,24,28,127,32*72
$GPGSV,4,3,13,27,09,322,36,29,38,182,43,32,07,214,37,46,39,234,39*78
$GPGSV,4,4,13,48,43,229,38*42
$GPGLL,2934.85711,N,09501.70126,W,224449.00,A,A*7F
$GPRMC,224450.00,A,2934.86354,N,09501.70254,W,24.504,350.78,120623,,,A*4A
$GPVTG,350.78,T,,M,24.504,N,45.382,K,A*3B
$GPGGA,224450.00,2934.86354,N,09501.70254,W,1,09,0.88,1.5,M,-24.3,M,,*67
$GPGSA,A,3,18,15,23,29,24,13,10,05,27,,,,1.59,0.88,1.33*0C
